{"ts": 1773692067.442272, "h2_status": {"voltage": 0.2, "current": 17.0, "power_kw": 9.2, "core_temp_c": 46.0, "flowmeter_kgh": 1.2995095464014916, "bat_v": 12.9}, "dynamics": {"speed_kmh": 340.2353196361266, "accel_g": 0.9800194546333507}, "mpu": {"pitch": -0.3396671501309978, "roll": 2.0113476567253397, "yaw": 0.9503553366793078, "ride_height": {"fl": 30.5, "fr": 30.5, "rl": 38.0, "rr": 38.0}}, "driver": {"steering_angle": 8.251787732136819, "throttle_pc": 86.35679513730133, "brake_pc": 0.0}, "gps": {"lat": 39.791993, "lng": -86.238692}, "weather": {"air_temp_c": 16.0, "track_temp_c": 31.0, "humidity_pc": 45.0}}
{"ts": 1773692067.555091, "h2_status": {"voltage": 0.2, "current": 18.0, "power_kw": 9.2, "core_temp_c": 46.0, "flowmeter_kgh": 1.2463849630208608, "bat_v": 12.9}, "dynamics": {"speed_kmh": 337.12769275511727, "accel_g": 0.44399678555626787}, "mpu": {"pitch": -0.6817230403680565, "roll": 2.392600856863237, "yaw": 0.6085493799631143, "ride_height": {"fl": 30.5, "fr": 30.5, "rl": 38.0, "rr": 38.0}}, "driver": {"steering_angle": -13.575846083944054, "throttle_pc": 80.89195077671354, "brake_pc": 0.0}, "gps": {"lat": 39.792013, "lng": -86.238693}, "weather": {"air_temp_c": 16.0, "track_temp_c": 31.0, "humidity_pc": 45.0}}
{"ts": 1773692067.664993, "h2_status": {"voltage": 0.2, "current": 17.0, "power_kw": 9.2, "core_temp_c": 46.0, "flowmeter_kgh": 1.2648707191369217, "bat_v": 12.9}, "dynamics": {"speed_kmh": 348.3832051910629, "accel_g": 0.2250016335458367}, "mpu": {"pitch": -0.2240843584567771, "roll": -1.8017414450293812, "yaw": -0.04161823216798921, "ride_height": {"fl": 30.5, "fr": 30.5, "rl": 38.0, "rr": 38.0}}, "driver": {"steering_angle": -6.79832630643512, "throttle_pc": 85.36188534959, "brake_pc": 0.0}, "gps": {"lat": 39.792028, "lng": -86.238694}, "weather": {"air_temp_c": 16.0, "track_temp_c": 31.0, "humidity_pc": 45.0}}
{"ts": 1773692067.771729, "h2_status": {"voltage": 0.2, "current": 17.0, "power_kw": 9.2, "core_temp_c": 46.0, "flowmeter_kgh": 1.2884893836349676, "bat_v": 12.9}, "dynamics": {"speed_kmh": 349.47788719460794, "accel_g": -0.7558240855571878}, "mpu": {"pitch": -0.3892183153562969, "roll": 0.7025639030310034, "yaw": -0.28313539433945656, "ride_height": {"fl": 30.5, "fr": 30.5, "rl": 38.0, "rr": 38.0}}, "driver": {"steering_angle": -12.602728570970076, "throttle_pc": 83.52521709922074, "brake_pc": 0.0}, "gps": {"lat": 39.792037, "lng": -86.238694}, "weather": {"air_temp_c": 16.0, "track_temp_c": 31.0, "humidity_pc": 45.0}}
{"ts": 1773692067.881382, "h2_status": {"voltage": 0.2, "current": 17.0, "power_kw": 9.2, "core_temp_c": 46.0, "flowmeter_kgh": 1.298462576339167, "bat_v": 12.9}, "dynamics": {"speed_kmh": 336.20345166166067, "accel_g": -0.27282244166964675}, "mpu": {"pitch": 0.45682681023687954, "roll": 0.6983877432033969, "yaw": -0.10892672370617174, "ride_height": {"fl": 30.5, "fr": 30.5, "rl": 38.0, "rr": 38.0}}, "driver": {"steering_angle": -12.023942302959416, "throttle_pc": 83.91827277298137, "brake_pc": 0.0}, "gps": {"lat": 39.792046, "lng": -86.238694}, "weather": {"air_temp_c": 16.0, "track_temp_c": 31.0, "humidity_pc": 45.0}}
{"ts": 1773692067.990912, "h2_status": {"voltage": 0.2, "current": 17.0, "power_kw": 9.2, "core_temp_c": 46.0, "flowmeter_kgh": 1.2305329117211932, "bat_v": 12.2}, "dynamics": {"speed_kmh": 332.37353092418107, "accel_g": -0.7470165772708361}, "mpu": {"pitch": -0.5155135590732436, "roll": -0.4921658587379527, "yaw": -0.3282046840465038, "ride_height": {"fl": 30.5, "fr": 30.5, "rl": 38.0, "rr": 38.0}}, "driver": {"steering_angle": -12.33070016272396, "throttle_pc": 84.50462088573693, "brake_pc": 0.0}, "gps": {"lat": 39.792055, "lng": -86.238694}, "weather": {"air_temp_c": 16.0, "track_temp_c": 31.0, "humidity_pc": 45.0}}
{"ts": 1773692068.1001852, "h2_status": {"voltage": 0.2, "current": 17.0, "power_kw": 9.2, "core_temp_c": 46.0, "flowmeter_kgh": 1.221230399913987, "bat_v": 13.0}, "dynamics": {"speed_kmh": 343.17727895046943, "accel_g": 0.5220372872778043}, "mpu": {"pitch": 0.514401319909223, "roll": 0.28829272213544455, "yaw": -0.7025157200360594, "ride_height": {"fl": 30.5, "fr": 30.5, "rl": 38.0, "rr": 38.0}}, "driver": {"steering_angle": 14.484722774514363, "throttle_pc": 89.02666298641458, "brake_pc": 0.0}, "gps": {"lat": 39.792064, "lng": -86.238694}, "weather": {"air_temp_c": 15.0, "track_temp_c": 30.0, "humidity_pc": 45.0}}
{"ts": 1773692068.207696, "h2_status": {"voltage": 0.2, "current": 17.0, "power_kw": 9.2, "core_temp_c": 46.0, "flowmeter_kgh": 1.2011699548096884, "bat_v": 13.0}, "dynamics": {"speed_kmh": 333.0646401386724, "accel_g": -0.587039459017455}, "mpu": {"pitch": 0.033536344795511264, "roll": -2.0839347752093813, "yaw": -0.9158325078441283, "ride_height": {"fl": 30.5, "fr": 30.5, "rl": 38.0, "rr": 38.0}}, "driver": {"steering_angle": -12.819665716965087, "throttle_pc": 94.85507895900446, "brake_pc": 0.0}, "gps": {"lat": 39.792073, "lng": -86.238694}, "weather": {"air_temp_c": 16.0, "track_temp_c": 31.0, "humidity_pc": 45.0}}
{"ts": 1773692068.315783, "h2_status": {"voltage": 0.2, "current": 16.0, "power_kw": 9.2, "core_temp_c": 46.0, "flowmeter_kgh": 1.264050884250417, "bat_v": 12.9}, "dynamics": {"speed_kmh": 340.2174405459286, "accel_g": -0.08472909408231444}, "mpu": {"pitch": 0.974580037860761, "roll": 2.5714333862923553, "yaw": 0.6248049454653002, "ride_height": {"fl": 30.5, "fr": 30.5, "rl": 38.0, "rr": 38.0}}, "driver": {"steering_angle": -2.1617435571282364, "throttle_pc": 96.13967345843193, "brake_pc": 0.0}, "gps": {"lat": 39.792082, "lng": -86.238694}, "weather": {"air_temp_c": 16.0, "track_temp_c": 31.0, "humidity_pc": 45.0}}
{"ts": 1773692068.422249, "h2_status": {"voltage": 0.2, "current": 14.0, "power_kw": 9.2, "core_temp_c": 46.0, "flowmeter_kgh": 1.2918333709991576, "bat_v": 12.9}, "dynamics": {"speed_kmh": 336.59109969721897, "accel_g": -0.023636675415655173}, "mpu": {"pitch": 0.5053825283965416, "roll": 0.86582476988207, "yaw": -0.1797967609474591, "ride_height": {"fl": 30.5, "fr": 30.5, "rl": 38.0, "rr": 38.0}}, "driver": {"steering_angle": -14.243459100904376, "throttle_pc": 98.00688819378308, "brake_pc": 0.0}, "gps": {"lat": 39.792091, "lng": -86.238694}, "weather": {"air_temp_c": 16.0, "track_temp_c": 31.0, "humidity_pc": 45.0}}
{"ts": 1773692068.5296059, "h2_status": {"voltage": 0.2, "current": 17.0, "power_kw": 9.2, "core_temp_c": 46.0, "flowmeter_kgh": 1.2715193784188767, "bat_v": 12.9}, "dynamics": {"speed_kmh": 345.89300507405653, "accel_g": 0.438006521109106}, "mpu": {"pitch": 0.8018275211999548, "roll": 0.976948613890698, "yaw": 0.37469740257074924, "ride_height": {"fl": 30.5, "fr": 30.5, "rl": 38.0, "rr": 38.0}}, "driver": {"steering_angle": 4.46731861131169, "throttle_pc": 87.12261718591179, "brake_pc": 0.0}, "gps": {"lat": 39.7921, "lng": -86.238694}, "weather": {"air_temp_c": 16.0, "track_temp_c": 31.0, "humidity_pc": 45.0}}
{"ts": 1773692068.6381571, "h2_status": {"voltage": 0.2, "current": 17.0, "power_kw": 9.2, "core_temp_c": 46.0, "flowmeter_kgh": 1.2729566228433289, "bat_v": 12.9}, "dynamics": {"speed_kmh": 330.3874443362835, "accel_g": -0.31873297617119145}, "mpu": {"pitch": -0.2098026382128486, "roll": 0.0014845215885834762, "yaw": 0.012488709983019097, "ride_height": {"fl": 30.5, "fr": 30.5, "rl": 38.0, "rr": 38.0}}, "driver": {"steering_angle": 13.166456937711697, "throttle_pc": 85.25472665723528, "brake_pc": 0.0}, "gps": {"lat": 39.792109, "lng": -86.238694}, "weather": {"air_temp_c": 16.0, "track_temp_c": 31.0, "humidity_pc": 45.0}}
{"ts": 1773692068.747387, "h2_status": {"voltage": 0.2, "current": 18.0, "power_kw": 9.2, "core_temp_c": 46.0, "flowmeter_kgh": 1.2944466071646406, "bat_v": 12.9}, "dynamics": {"speed_kmh": 334.33044304723563, "accel_g": -0.7981163370311057}, "mpu": {"pitch": -0.5945061808260863, "roll": -2.884957268292535, "yaw": -0.1533382750460135, "ride_height": {"fl": 30.5, "fr": 30.5, "rl": 38.0, "rr": 38.0}}, "driver": {"steering_angle": -14.757182276939758, "throttle_pc": 99.69946975336426, "brake_pc": 0.0}, "gps": {"lat": 39.792118, "lng": -86.238694}, "weather": {"air_temp_c": 16.0, "track_temp_c": 31.0, "humidity_pc": 45.0}}
{"ts": 1773692068.855072, "h2_status": {"voltage": 0.2, "current": 17.0, "power_kw": 9.2, "core_temp_c": 46.0, "flowmeter_kgh": 1.280534881023462, "bat_v": 12.9}, "dynamics": {"speed_kmh": 344.8618171187276, "accel_g": -0.8747721698050448}, "mpu": {"pitch": -0.6235720005652208, "roll": 2.5961367246212443, "yaw": 0.28541250274397245, "ride_height": {"fl": 30.5, "fr": 30.5, "rl": 38.0, "rr": 38.0}}, "driver": {"steering_angle": 7.191612813547778, "throttle_pc": 99.29219615039847, "brake_pc": 0.0}, "gps": {"lat": 39.792127, "lng": -86.238694}, "weather": {"air_temp_c": 16.0, "track_temp_c": 31.0, "humidity_pc": 45.0}}
{"ts": 1773692068.967767, "h2_status": {"voltage": 0.2, "current": 17.0, "power_kw": 9.2, "core_temp_c": 46.0, "flowmeter_kgh": 1.2201308724222648, "bat_v": 12.9}, "dynamics": {"speed_kmh": 349.68417191240826, "accel_g": -0.8389577251708717}, "mpu": {"pitch": 0.9419849890529919, "roll": -0.7587139782520964, "yaw": -0.5647581800538588, "ride_height": {"fl": 30.5, "fr": 30.5, "rl": 38.0, "rr": 38.0}}, "driver": {"steering_angle": 11.03356976866467, "throttle_pc": 84.13523044334751, "brake_pc": 0.0}, "gps": {"lat": 39.792136, "lng": -86.238694}, "weather": {"air_temp_c": 16.0, "track_temp_c": 31.0, "humidity_pc": 45.0}}
{"ts": 1773692069.079177, "h2_status": {"voltage": 0.2, "current": 17.0, "power_kw": 9.2, "core_temp_c": 46.0, "flowmeter_kgh": 1.2131404835073547, "bat_v": 12.9}, "dynamics": {"speed_kmh": 335.6767579108085, "accel_g": 0.1385475579224016}, "mpu": {"pitch": 0.4138331555277155, "roll": -1.19428563969068, "yaw": -0.2776699716103612, "ride_height": {"fl": 30.5, "fr": 30.5, "rl": 38.0, "rr": 38.0}}, "driver": {"steering_angle": 2.2450286826369528, "throttle_pc": 86.38045803422975, "brake_pc": 0.0}, "gps": {"lat": 39.792145, "lng": -86.238694}, "weather": {"air_temp_c": 16.0, "track_temp_c": 31.0, "humidity_pc": 45.0}}
{"ts": 1773692069.1913118, "h2_status": {"voltage": 0.2, "current": 17.0, "power_kw": 9.2, "core_temp_c": 46.0, "flowmeter_kgh": 1.2367411336729344, "bat_v": 12.9}, "dynamics": {"speed_kmh": 345.54611821648416, "accel_g": 0.1712159422227566}, "mpu": {"pitch": 0.048811665809803895, "roll": 0.25157839352723244, "yaw": -0.1732581573169767, "ride_height": {"fl": 30.5, "fr": 30.5, "rl": 38.0, "rr": 38.0}}, "driver": {"steering_angle": 3.012761557897811, "throttle_pc": 80.9623197993695, "brake_pc": 0.0}, "gps": {"lat": 39.792154, "lng": -86.238694}, "weather": {"air_temp_c": 16.0, "track_temp_c": 31.0, "humidity_pc": 45.0}}
{"ts": 1773692069.301516, "h2_status": {"voltage": 0.2, "current": 20.0, "power_kw": 9.2, "core_temp_c": 46.0, "flowmeter_kgh": 1.2605833074980968, "bat_v": 12.9}, "dynamics": {"speed_kmh": 338.534367129059, "accel_g": -0.3353459225020081}, "mpu": {"pitch": -0.9708365199895979, "roll": -2.730067783342287, "yaw": 0.28619915457080336, "ride_height": {"fl": 30.5, "fr": 30.5, "rl": 38.0, "rr": 38.0}}, "driver": {"steering_angle": 4.91978862855418, "throttle_pc": 81.12198952350779, "brake_pc": 0.0}, "gps": {"lat": 39.792163, "lng": -86.238694}, "weather": {"air_temp_c": 16.0, "track_temp_c": 31.0, "humidity_pc": 45.0}}
{"ts": 1773692069.407736, "h2_status": {"voltage": 0.2, "current": 17.0, "power_kw": 9.2, "core_temp_c": 46.0, "flowmeter_kgh": 1.2569341572726112, "bat_v": 12.9}, "dynamics": {"speed_kmh": 345.5928177971355, "accel_g": -0.5098339993342818}, "mpu": {"pitch": -0.34419314549789437, "roll": -2.0451018714491536, "yaw": 0.7347555039741733, "ride_height": {"fl": 30.5, "fr": 30.5, "rl": 38.0, "rr": 38.0}}, "driver": {"steering_angle": 7.033064445209838, "throttle_pc": 96.30350449653042, "brake_pc": 0.0}, "gps": {"lat": 39.792172, "lng": -86.238694}, "weather": {"air_temp_c": 16.0, "track_temp_c": 31.0, "humidity_pc": 45.0}}
{"ts": 1773692069.516047, "h2_status": {"voltage": 0.2, "current": 16.0, "power_kw": 9.2, "core_temp_c": 46.0, "flowmeter_kgh": 1.288538950199812, "bat_v": 12.9}, "dynamics": {"speed_kmh": 332.13093395151867, "accel_g": -0.7101940723192703}, "mpu": {"pitch": -0.13808210494668915, "roll": 0.25991899862578993, "yaw": -0.44460598213849933, "ride_height": {"fl": 30.5, "fr": 30.5, "rl": 38.0, "rr": 38.0}}, "driver": {"steering_angle": -6.381818616208433, "throttle_pc": 91.86025466607195, "brake_pc": 0.0}, "gps": {"lat": 39.792181, "lng": -86.238694}, "weather": {"air_temp_c": 16.0, "track_temp_c": 31.0, "humidity_pc": 45.0}}
